{
    "restaurants": [
        {
            "name": "Abdul Haq Karai",
            "address": "Mardan-Mayar-Turo Road",
            "lat": 34.1636975,
            "lng": 72.083433,
            "phone": "",
            "website": "",
            "opening_hours": "",
            "source": "OpenStreetMap",
            "osm_type": "node",
            "osm_id": 8380396217,
            "osm_url": "https://www.openstreetmap.org/node/8380396217"
        },
        {
            "name": "Gustoso Caf\u00e9",
            "address": "Mardan",
            "lat": 34.1979124,
            "lng": 72.0426482,
            "phone": "",
            "website": "",
            "opening_hours": "",
            "source": "OpenStreetMap",
            "osm_type": "node",
            "osm_id": 6431421595,
            "osm_url": "https://www.openstreetmap.org/node/6431421595"
        },
        {
            "name": "JUMERIAH Restaurant",
            "address": "Mardan",
            "lat": 34.3146825,
            "lng": 71.9076119,
            "phone": "",
            "website": "",
            "opening_hours": "",
            "source": "OpenStreetMap",
            "osm_type": "node",
            "osm_id": 6204917085,
            "osm_url": "https://www.openstreetmap.org/node/6204917085"
        },
        {
            "name": "Mardan Restaurant",
            "address": "Mardan",
            "lat": 34.1550062,
            "lng": 72.0281999,
            "phone": "",
            "website": "",
            "opening_hours": "",
            "source": "OpenStreetMap",
            "osm_type": "node",
            "osm_id": 5556899422,
            "osm_url": "https://www.openstreetmap.org/node/5556899422"
        },
        {
            "name": "Sheen Gul Restaurant",
            "address": "Mardan - Swabi Road",
            "lat": 34.2075556,
            "lng": 72.0340927,
            "phone": "",
            "website": "",
            "opening_hours": "",
            "source": "OpenStreetMap",
            "osm_type": "node",
            "osm_id": 6341638798,
            "osm_url": "https://www.openstreetmap.org/node/6341638798"
        }
    ],
    "hospitals": [
        {
            "name": "Combined Military Hospital",
            "address": "Mardan",
            "lat": 34.1999341,
            "lng": 72.0438936,
            "phone": "",
            "website": "",
            "opening_hours": "",
            "source": "OpenStreetMap",
            "osm_type": "way",
            "osm_id": 302967762,
            "osm_url": "https://www.openstreetmap.org/way/302967762"
        },
        {
            "name": "District Head Q",
            "address": "Shamsi Road",
            "lat": 34.1914888,
            "lng": 72.0458214,
            "phone": "",
            "website": "",
            "opening_hours": "24/7",
            "source": "OpenStreetMap",
            "osm_type": "node",
            "osm_id": 7105268185,
            "osm_url": "https://www.openstreetmap.org/node/7105268185"
        },
        {
            "name": "District Head Quarter Hospital",
            "address": "Shamsi Road, Mardan",
            "lat": 34.1903426,
            "lng": 72.046024,
            "phone": "",
            "website": "",
            "opening_hours": "",
            "source": "OpenStreetMap",
            "osm_type": "way",
            "osm_id": 338589000,
            "osm_url": "https://www.openstreetmap.org/way/338589000"
        },
        {
            "name": "District Head Quarter Hospital",
            "address": "shamsi Road, Mardan",
            "lat": 34.1927458,
            "lng": 72.0466053,
            "phone": "",
            "website": "",
            "opening_hours": "",
            "source": "OpenStreetMap",
            "osm_type": "way",
            "osm_id": 338589001,
            "osm_url": "https://www.openstreetmap.org/way/338589001"
        },
        {
            "name": "Dr. Syed Ashfaq Ali Psychiatrist\u2019s Clinic",
            "address": "Clock Tower, Shamsi Road",
            "lat": 34.1923143,
            "lng": 72.0438788,
            "phone": "",
            "website": "",
            "opening_hours": "",
            "source": "OpenStreetMap",
            "osm_type": "node",
            "osm_id": 9610802817,
            "osm_url": "https://www.openstreetmap.org/node/9610802817"
        },
        {
            "name": "Dr.Farman's Clinic",
            "address": "Bakhshali Road",
            "lat": 34.2756299,
            "lng": 72.1473921,
            "phone": "",
            "website": "",
            "opening_hours": "24/7",
            "source": "OpenStreetMap",
            "osm_type": "node",
            "osm_id": 6563488585,
            "osm_url": "https://www.openstreetmap.org/node/6563488585"
        },
        {
            "name": "Dr.Hameed ur Rehman Cardiologist\u2019s Clinic",
            "address": "Canal Road",
            "lat": 34.1910581,
            "lng": 72.0303437,
            "phone": "",
            "website": "",
            "opening_hours": "",
            "source": "OpenStreetMap",
            "osm_type": "node",
            "osm_id": 9610802717,
            "osm_url": "https://www.openstreetmap.org/node/9610802717"
        },
        {
            "name": "Dr.Samad Hemopathic Clinic",
            "address": "Mardan-Charsadda Road",
            "lat": 34.1956528,
            "lng": 71.9958934,
            "phone": "",
            "website": "",
            "opening_hours": "",
            "source": "OpenStreetMap",
            "osm_type": "node",
            "osm_id": 6416453485,
            "osm_url": "https://www.openstreetmap.org/node/6416453485"
        },
        {
            "name": "Makka Eye Hospital",
            "address": "Canal Road",
            "lat": 34.1897462,
            "lng": 72.0325957,
            "phone": "",
            "website": "",
            "opening_hours": "",
            "source": "OpenStreetMap",
            "osm_type": "node",
            "osm_id": 8280575121,
            "osm_url": "https://www.openstreetmap.org/node/8280575121"
        },
        {
            "name": "Mardan Children Hospital",
            "address": "Shamsi Road",
            "lat": 34.1916901,
            "lng": 72.0485264,
            "phone": "+92937873228",
            "website": "",
            "opening_hours": "24/7",
            "source": "OpenStreetMap",
            "osm_type": "node",
            "osm_id": 8624885418,
            "osm_url": "https://www.openstreetmap.org/node/8624885418"
        },
        {
            "name": "Mardan Medical Centre Dentistry Department",
            "address": "Mardan - Malakand Road",
            "lat": 34.1515668,
            "lng": 72.033631,
            "phone": "",
            "website": "",
            "opening_hours": "",
            "source": "OpenStreetMap",
            "osm_type": "node",
            "osm_id": 8383489317,
            "osm_url": "https://www.openstreetmap.org/node/8383489317"
        },
        {
            "name": "Mardan Medical Centre Hospital",
            "address": "Mardan",
            "lat": 34.1541066,
            "lng": 72.0298371,
            "phone": "",
            "website": "",
            "opening_hours": "",
            "source": "OpenStreetMap",
            "osm_type": "node",
            "osm_id": 4432772717,
            "osm_url": "https://www.openstreetmap.org/node/4432772717"
        },
        {
            "name": "Qazi Medical Centre",
            "address": "Hoti Road",
            "lat": 34.2001513,
            "lng": 72.0689419,
            "phone": "",
            "website": "",
            "opening_hours": "",
            "source": "OpenStreetMap",
            "osm_type": "node",
            "osm_id": 4251879990,
            "osm_url": "https://www.openstreetmap.org/node/4251879990"
        },
        {
            "name": "Sheikh Yaseen Medical Centre",
            "address": "Shamsi Road",
            "lat": 34.1921706,
            "lng": 72.0438772,
            "phone": "",
            "website": "",
            "opening_hours": "",
            "source": "OpenStreetMap",
            "osm_type": "node",
            "osm_id": 9297674018,
            "osm_url": "https://www.openstreetmap.org/node/9297674018"
        },
        {
            "name": "Zeeshan Medical Centre",
            "address": "Shamsi Road",
            "lat": 34.1915199,
            "lng": 72.0475934,
            "phone": "",
            "website": "",
            "opening_hours": "",
            "source": "OpenStreetMap",
            "osm_type": "node",
            "osm_id": 5750492721,
            "osm_url": "https://www.openstreetmap.org/node/5750492721"
        }
    ],
    "petrol-pumps": [
        {
            "name": "Attock Fuel Pump Filling Station",
            "address": "Mardan - Malakand Road",
            "lat": 34.174852,
            "lng": 72.0316892,
            "phone": "",
            "website": "",
            "opening_hours": "",
            "source": "OpenStreetMap",
            "osm_type": "node",
            "osm_id": 8280575423,
            "osm_url": "https://www.openstreetmap.org/node/8280575423"
        },
        {
            "name": "Fuel Filling Station",
            "address": "Mardan-Ghari Kapoora- khuru Road",
            "lat": 34.1607617,
            "lng": 72.1512299,
            "phone": "",
            "website": "",
            "opening_hours": "",
            "source": "OpenStreetMap",
            "osm_type": "node",
            "osm_id": 7319732185,
            "osm_url": "https://www.openstreetmap.org/node/7319732185"
        },
        {
            "name": "Highway Energy Filling Station \u06c1\u0627\u0626\u06cc \u0648\u06d2 \u0627\u0646\u0631\u062c\u06cc \u0641\u0644\u0646\u06af \u0627\u0633\u0679\u06cc\u0634\u0646",
            "address": "Mardan",
            "lat": 34.2511301,
            "lng": 71.971873,
            "phone": "",
            "website": "",
            "opening_hours": "24/7",
            "source": "OpenStreetMap",
            "osm_type": "node",
            "osm_id": 3224366336,
            "osm_url": "https://www.openstreetmap.org/node/3224366336"
        },
        {
            "name": "Pakistan State Oil Filling Station",
            "address": "Mardan - Malakand Road",
            "lat": 34.207406,
            "lng": 72.026516,
            "phone": "",
            "website": "",
            "opening_hours": "24/7",
            "source": "OpenStreetMap",
            "osm_type": "node",
            "osm_id": 6493235486,
            "osm_url": "https://www.openstreetmap.org/node/6493235486"
        },
        {
            "name": "Sahibzada Filling Station  \u0635\u0627\u062d\u0628\u0632\u0627\u062f\u06c1 \u0641\u0644\u0646\u06af \u0627\u0633\u0679\u06cc\u0634\u0646",
            "address": "Mardan",
            "lat": 34.2591039,
            "lng": 72.0509999,
            "phone": "",
            "website": "",
            "opening_hours": "",
            "source": "OpenStreetMap",
            "osm_type": "way",
            "osm_id": 405072587,
            "osm_url": "https://www.openstreetmap.org/way/405072587"
        },
        {
            "name": "\u0633\u06cc \u0627\u06cc\u0646 \u062c\u06cc",
            "address": "Mardan",
            "lat": 34.3286709,
            "lng": 71.907971,
            "phone": "",
            "website": "",
            "opening_hours": "",
            "source": "OpenStreetMap",
            "osm_type": "node",
            "osm_id": 6984425385,
            "osm_url": "https://www.openstreetmap.org/node/6984425385"
        },
        {
            "name": "\u0634\u06cc\u0644",
            "address": "Mardan - Malakand Road",
            "lat": 34.2027294,
            "lng": 72.0289122,
            "phone": "",
            "website": "",
            "opening_hours": "24/7",
            "source": "OpenStreetMap",
            "osm_type": "node",
            "osm_id": 8280575319,
            "osm_url": "https://www.openstreetmap.org/node/8280575319"
        },
        {
            "name": "\u067e\u0627\u06a9\u0633\u062a\u0627\u0646 \u0627\u0633\u0679\u06cc\u0679 \u0622\u0626\u0644",
            "address": "Bank Road",
            "lat": 34.1958784,
            "lng": 72.038041,
            "phone": "",
            "website": "",
            "opening_hours": "",
            "source": "OpenStreetMap",
            "osm_type": "node",
            "osm_id": 8280575430,
            "osm_url": "https://www.openstreetmap.org/node/8280575430"
        }
    ],
    "shopping-malls": [
        {
            "name": "Al Maroof Plaza",
            "address": "Mardan",
            "lat": 34.1966275,
            "lng": 72.041221,
            "phone": "",
            "website": "",
            "opening_hours": "",
            "source": "OpenStreetMap",
            "osm_type": "node",
            "osm_id": 3456940875,
            "osm_url": "https://www.openstreetmap.org/node/3456940875"
        },
        {
            "name": "Bickut Gunj Market",
            "address": "Bank Road, Mardan",
            "lat": 34.1956609,
            "lng": 72.0387798,
            "phone": "",
            "website": "",
            "opening_hours": "",
            "source": "OpenStreetMap",
            "osm_type": "node",
            "osm_id": 3456955029,
            "osm_url": "https://www.openstreetmap.org/node/3456955029"
        },
        {
            "name": "Cantt Plaza",
            "address": "Mardan",
            "lat": 34.1981527,
            "lng": 72.0396367,
            "phone": "",
            "website": "",
            "opening_hours": "",
            "source": "OpenStreetMap",
            "osm_type": "way",
            "osm_id": 338587096,
            "osm_url": "https://www.openstreetmap.org/way/338587096"
        },
        {
            "name": "Jehangir Market",
            "address": "Mall Road, Mardan",
            "lat": 34.1961244,
            "lng": 72.0386818,
            "phone": "",
            "website": "",
            "opening_hours": "",
            "source": "OpenStreetMap",
            "osm_type": "node",
            "osm_id": 3456952103,
            "osm_url": "https://www.openstreetmap.org/node/3456952103"
        },
        {
            "name": "Kalpani Small Bridge",
            "address": "Sikandari Road",
            "lat": 34.1964068,
            "lng": 72.0585134,
            "phone": "",
            "website": "",
            "opening_hours": "",
            "source": "OpenStreetMap",
            "osm_type": "node",
            "osm_id": 4293346403,
            "osm_url": "https://www.openstreetmap.org/node/4293346403"
        },
        {
            "name": "Mardan Medical Centre Dentistry Department",
            "address": "Mardan - Malakand Road",
            "lat": 34.1515668,
            "lng": 72.033631,
            "phone": "",
            "website": "",
            "opening_hours": "",
            "source": "OpenStreetMap",
            "osm_type": "node",
            "osm_id": 8383489317,
            "osm_url": "https://www.openstreetmap.org/node/8383489317"
        },
        {
            "name": "Mardan Medical Centre Hospital",
            "address": "Mardan",
            "lat": 34.1541066,
            "lng": 72.0298371,
            "phone": "",
            "website": "",
            "opening_hours": "",
            "source": "OpenStreetMap",
            "osm_type": "node",
            "osm_id": 4432772717,
            "osm_url": "https://www.openstreetmap.org/node/4432772717"
        },
        {
            "name": "National Savings Centre",
            "address": "\u0645\u0627\u0644 \u0631\u0648\u0688",
            "lat": 34.2005479,
            "lng": 72.041313,
            "phone": "+929379230036",
            "website": "",
            "opening_hours": "",
            "source": "OpenStreetMap",
            "osm_type": "node",
            "osm_id": 11801445172,
            "osm_url": "https://www.openstreetmap.org/node/11801445172"
        },
        {
            "name": "Ocean Mall Mardan",
            "address": "Mardan - Malakand Road",
            "lat": 34.173905,
            "lng": 72.0312206,
            "phone": "",
            "website": "",
            "opening_hours": "",
            "source": "OpenStreetMap",
            "osm_type": "node",
            "osm_id": 8280575119,
            "osm_url": "https://www.openstreetmap.org/node/8280575119"
        },
        {
            "name": "Promise Tailors Abaseen Shopping Plaza",
            "address": "Gaju Khan Road",
            "lat": 34.1931974,
            "lng": 72.044957,
            "phone": "+923139943102",
            "website": "",
            "opening_hours": "0800-2000",
            "source": "OpenStreetMap",
            "osm_type": "node",
            "osm_id": 6341638695,
            "osm_url": "https://www.openstreetmap.org/node/6341638695"
        },
        {
            "name": "Qazi Medical Centre",
            "address": "Hoti Road",
            "lat": 34.2001513,
            "lng": 72.0689419,
            "phone": "",
            "website": "",
            "opening_hours": "",
            "source": "OpenStreetMap",
            "osm_type": "node",
            "osm_id": 4251879990,
            "osm_url": "https://www.openstreetmap.org/node/4251879990"
        },
        {
            "name": "Service Delivery Centre",
            "address": "Mall Road",
            "lat": 34.1956444,
            "lng": 72.0366166,
            "phone": "",
            "website": "",
            "opening_hours": "Mo-Sa 00:00-24:00",
            "source": "OpenStreetMap",
            "osm_type": "node",
            "osm_id": 6877701885,
            "osm_url": "https://www.openstreetmap.org/node/6877701885"
        },
        {
            "name": "Shah Trade and Marketing",
            "address": "Mardan - Malakand Road, Mardan",
            "lat": 34.1942983,
            "lng": 72.0332824,
            "phone": "",
            "website": "",
            "opening_hours": "24/7",
            "source": "OpenStreetMap",
            "osm_type": "node",
            "osm_id": 5638452429,
            "osm_url": "https://www.openstreetmap.org/node/5638452429"
        },
        {
            "name": "Sheikh Yaseen Medical Centre",
            "address": "Shamsi Road",
            "lat": 34.1921706,
            "lng": 72.0438772,
            "phone": "",
            "website": "",
            "opening_hours": "",
            "source": "OpenStreetMap",
            "osm_type": "node",
            "osm_id": 9297674018,
            "osm_url": "https://www.openstreetmap.org/node/9297674018"
        },
        {
            "name": "Umar Shopping Plaza",
            "address": "Mardan",
            "lat": 34.1907244,
            "lng": 72.034269,
            "phone": "",
            "website": "",
            "opening_hours": "",
            "source": "OpenStreetMap",
            "osm_type": "node",
            "osm_id": 8280575427,
            "osm_url": "https://www.openstreetmap.org/node/8280575427"
        },
        {
            "name": "Zeeshan Medical Centre",
            "address": "Shamsi Road",
            "lat": 34.1915199,
            "lng": 72.0475934,
            "phone": "",
            "website": "",
            "opening_hours": "",
            "source": "OpenStreetMap",
            "osm_type": "node",
            "osm_id": 5750492721,
            "osm_url": "https://www.openstreetmap.org/node/5750492721"
        }
    ],
    "pharmacies": [
        {
            "name": "IBAD Medicose Gunjai",
            "address": "Mardan",
            "lat": 34.3045295,
            "lng": 71.913691,
            "phone": "+92 0345 0300993",
            "website": "",
            "opening_hours": "",
            "source": "OpenStreetMap",
            "osm_type": "node",
            "osm_id": 8576948997,
            "osm_url": "https://www.openstreetmap.org/node/8576948997"
        },
        {
            "name": "Mardan Medical Centre Dentistry Department",
            "address": "Mardan - Malakand Road",
            "lat": 34.1515668,
            "lng": 72.033631,
            "phone": "",
            "website": "",
            "opening_hours": "",
            "source": "OpenStreetMap",
            "osm_type": "node",
            "osm_id": 8383489317,
            "osm_url": "https://www.openstreetmap.org/node/8383489317"
        },
        {
            "name": "Mardan Medical Centre Hospital",
            "address": "Mardan",
            "lat": 34.1541066,
            "lng": 72.0298371,
            "phone": "",
            "website": "",
            "opening_hours": "",
            "source": "OpenStreetMap",
            "osm_type": "node",
            "osm_id": 4432772717,
            "osm_url": "https://www.openstreetmap.org/node/4432772717"
        },
        {
            "name": "Muteeb pharmacy",
            "address": "Village Pandheri , main bakhshali mardan road near iqra school,",
            "lat": 34.208998,
            "lng": 72.07371,
            "source": "Added manually"
        },
        {
            "name": "Qazi Medical Centre",
            "address": "Hoti Road",
            "lat": 34.2001513,
            "lng": 72.0689419,
            "phone": "",
            "website": "",
            "opening_hours": "",
            "source": "OpenStreetMap",
            "osm_type": "node",
            "osm_id": 4251879990,
            "osm_url": "https://www.openstreetmap.org/node/4251879990"
        },
        {
            "name": "Sheikh Yaseen Medical Centre",
            "address": "Shamsi Road",
            "lat": 34.1921706,
            "lng": 72.0438772,
            "phone": "",
            "website": "",
            "opening_hours": "",
            "source": "OpenStreetMap",
            "osm_type": "node",
            "osm_id": 9297674018,
            "osm_url": "https://www.openstreetmap.org/node/9297674018"
        },
        {
            "name": "Zeeshan Medical Centre",
            "address": "Shamsi Road",
            "lat": 34.1915199,
            "lng": 72.0475934,
            "phone": "",
            "website": "",
            "opening_hours": "",
            "source": "OpenStreetMap",
            "osm_type": "node",
            "osm_id": 5750492721,
            "osm_url": "https://www.openstreetmap.org/node/5750492721"
        },
        {
            "name": "Muteeb pharmacy and store",
            "address": "bakhshali mardan road",
            "lat": 34.27495,
            "lng": 72.147151,
            "source": "Added manually"
        }
    ],
    "wedding-halls": [
        {
            "name": "Balana Wedding Hall",
            "address": "Bypass Road",
            "lat": 34.1754666,
            "lng": 72.0236341,
            "phone": "",
            "website": "",
            "opening_hours": "24/7",
            "source": "OpenStreetMap",
            "osm_type": "node",
            "osm_id": 6561530886,
            "osm_url": "https://www.openstreetmap.org/node/6561530886"
        },
        {
            "name": "Kainat Wedding Hall",
            "address": "Mardan",
            "lat": 34.1520494,
            "lng": 72.0342861,
            "phone": "",
            "website": "",
            "opening_hours": "",
            "source": "OpenStreetMap",
            "osm_type": "node",
            "osm_id": 7271394986,
            "osm_url": "https://www.openstreetmap.org/node/7271394986"
        }
    ],
    "hotels": [
        {
            "name": "safdar hotel",
            "address": "Mardan",
            "lat": 34.3177759,
            "lng": 71.9057421,
            "phone": "",
            "website": "",
            "opening_hours": "",
            "source": "OpenStreetMap",
            "osm_type": "node",
            "osm_id": 6218047986,
            "osm_url": "https://www.openstreetmap.org/node/6218047986"
        }
    ],
    "tourist-spots": [
        {
            "name": "Bacha Khan Monument",
            "address": "Mardan",
            "lat": 34.1918347,
            "lng": 72.0347189,
            "phone": "",
            "website": "",
            "opening_hours": "",
            "source": "OpenStreetMap",
            "osm_type": "node",
            "osm_id": 3072544375,
            "osm_url": "https://www.openstreetmap.org/node/3072544375"
        },
        {
            "name": "Bakhshali Patwar Khana",
            "address": "Bickht Gunj",
            "lat": 34.1925793,
            "lng": 72.0396394,
            "phone": "",
            "website": "",
            "opening_hours": "Mo-Sa 09:00-16:00",
            "source": "OpenStreetMap",
            "osm_type": "node",
            "osm_id": 7271406387,
            "osm_url": "https://www.openstreetmap.org/node/7271406387"
        },
        {
            "name": "Chichhar",
            "address": "Katlang Road",
            "lat": 34.320689,
            "lng": 72.0547834,
            "phone": "",
            "website": "",
            "opening_hours": "",
            "source": "OpenStreetMap",
            "osm_type": "node",
            "osm_id": 8280575230,
            "osm_url": "https://www.openstreetmap.org/node/8280575230"
        },
        {
            "name": "Company Park",
            "address": "Mardan",
            "lat": 34.1974138,
            "lng": 72.0417963,
            "phone": "",
            "website": "",
            "opening_hours": "",
            "source": "OpenStreetMap",
            "osm_type": "way",
            "osm_id": 72663742,
            "osm_url": "https://www.openstreetmap.org/way/72663742"
        },
        {
            "name": "Danish Colony",
            "address": "Mardan",
            "lat": 34.1779803,
            "lng": 72.0294679,
            "phone": "",
            "website": "",
            "opening_hours": "",
            "source": "OpenStreetMap",
            "osm_type": "node",
            "osm_id": 8280575225,
            "osm_url": "https://www.openstreetmap.org/node/8280575225"
        },
        {
            "name": "Daulat Khan\u2019s House",
            "address": "Mardan",
            "lat": 34.1533481,
            "lng": 72.0367024,
            "phone": "",
            "website": "",
            "opening_hours": "",
            "source": "OpenStreetMap",
            "osm_type": "node",
            "osm_id": 6407258886,
            "osm_url": "https://www.openstreetmap.org/node/6407258886"
        },
        {
            "name": "Defence Colony",
            "address": "Mardan",
            "lat": 34.2061305,
            "lng": 72.028623,
            "phone": "",
            "website": "",
            "opening_hours": "",
            "source": "OpenStreetMap",
            "osm_type": "node",
            "osm_id": 6356444485,
            "osm_url": "https://www.openstreetmap.org/node/6356444485"
        },
        {
            "name": "Dr. Abdul Qadeer Chowk",
            "address": "Mardan",
            "lat": 34.1958536,
            "lng": 72.0328881,
            "phone": "",
            "website": "",
            "opening_hours": "",
            "source": "OpenStreetMap",
            "osm_type": "node",
            "osm_id": 3456955187,
            "osm_url": "https://www.openstreetmap.org/node/3456955187"
        },
        {
            "name": "Dr.Shoukat Jamal Amirzadah\u2019s Agriculture Farm",
            "address": "Mardan",
            "lat": 34.2677208,
            "lng": 72.1360173,
            "phone": "",
            "website": "",
            "opening_hours": "",
            "source": "OpenStreetMap",
            "osm_type": "node",
            "osm_id": 6370499985,
            "osm_url": "https://www.openstreetmap.org/node/6370499985"
        },
        {
            "name": "Garden City Town",
            "address": "Mohallah Landaki",
            "lat": 34.1784449,
            "lng": 72.0588287,
            "phone": "",
            "website": "",
            "opening_hours": "",
            "source": "OpenStreetMap",
            "osm_type": "node",
            "osm_id": 8805073117,
            "osm_url": "https://www.openstreetmap.org/node/8805073117"
        },
        {
            "name": "Garden City Township, Mardan",
            "address": "Mohallah Landaki",
            "lat": 34.1767196,
            "lng": 72.0538931,
            "phone": "",
            "website": "",
            "opening_hours": "",
            "source": "OpenStreetMap",
            "osm_type": "node",
            "osm_id": 8668659319,
            "osm_url": "https://www.openstreetmap.org/node/8668659319"
        },
        {
            "name": "Grave Yard",
            "address": "Mardan",
            "lat": 34.169784,
            "lng": 72.0554751,
            "phone": "",
            "website": "",
            "opening_hours": "",
            "source": "OpenStreetMap",
            "osm_type": "node",
            "osm_id": 8668661117,
            "osm_url": "https://www.openstreetmap.org/node/8668661117"
        },
        {
            "name": "Gujjaro Garhai",
            "address": "Mardan - Malakand Road",
            "lat": 34.2301304,
            "lng": 72.0073375,
            "phone": "",
            "website": "",
            "opening_hours": "",
            "source": "OpenStreetMap",
            "osm_type": "node",
            "osm_id": 8280575420,
            "osm_url": "https://www.openstreetmap.org/node/8280575420"
        },
        {
            "name": "Hujra Zafarkhel",
            "address": "Zafarkhel Street",
            "lat": 34.2823789,
            "lng": 72.1496711,
            "phone": "",
            "website": "",
            "opening_hours": "",
            "source": "OpenStreetMap",
            "osm_type": "node",
            "osm_id": 8380396017,
            "osm_url": "https://www.openstreetmap.org/node/8380396017"
        },
        {
            "name": "Kainat Wedding Hall",
            "address": "Mardan",
            "lat": 34.1520494,
            "lng": 72.0342861,
            "phone": "",
            "website": "",
            "opening_hours": "",
            "source": "OpenStreetMap",
            "osm_type": "node",
            "osm_id": 7271394986,
            "osm_url": "https://www.openstreetmap.org/node/7271394986"
        },
        {
            "name": "Kalpani Small Bridge",
            "address": "Sikandari Road",
            "lat": 34.1964068,
            "lng": 72.0585134,
            "phone": "",
            "website": "",
            "opening_hours": "",
            "source": "OpenStreetMap",
            "osm_type": "node",
            "osm_id": 4293346403,
            "osm_url": "https://www.openstreetmap.org/node/4293346403"
        },
        {
            "name": "Khan Amirzadah Khan\u2019s House",
            "address": "Mardan",
            "lat": 34.2770259,
            "lng": 72.1473114,
            "phone": "",
            "website": "",
            "opening_hours": "",
            "source": "OpenStreetMap",
            "osm_type": "node",
            "osm_id": 6110380786,
            "osm_url": "https://www.openstreetmap.org/node/6110380786"
        },
        {
            "name": "Major.Shehryar Amirzadah\u2019s Agriculture Farm",
            "address": "Mardan",
            "lat": 34.2677926,
            "lng": 72.1366947,
            "phone": "",
            "website": "",
            "opening_hours": "",
            "source": "OpenStreetMap",
            "osm_type": "node",
            "osm_id": 6370500185,
            "osm_url": "https://www.openstreetmap.org/node/6370500185"
        },
        {
            "name": "Malik Shahzada Khan\u2019s House",
            "address": "Bakhshali road",
            "lat": 34.274135,
            "lng": 72.1456668,
            "phone": "",
            "website": "",
            "opening_hours": "",
            "source": "OpenStreetMap",
            "osm_type": "node",
            "osm_id": 8280575422,
            "osm_url": "https://www.openstreetmap.org/node/8280575422"
        },
        {
            "name": "Mardan Gate Memorial",
            "address": "Mardan",
            "lat": 34.1922504,
            "lng": 72.0346623,
            "phone": "",
            "website": "",
            "opening_hours": "",
            "source": "OpenStreetMap",
            "osm_type": "node",
            "osm_id": 3072544377,
            "osm_url": "https://www.openstreetmap.org/node/3072544377"
        },
        {
            "name": "Masjid",
            "address": "Mardan",
            "lat": 34.1694716,
            "lng": 72.0857252,
            "phone": "",
            "website": "",
            "opening_hours": "",
            "source": "OpenStreetMap",
            "osm_type": "node",
            "osm_id": 8380396019,
            "osm_url": "https://www.openstreetmap.org/node/8380396019"
        },
        {
            "name": "Memorial Park",
            "address": "Mardan",
            "lat": 34.1983266,
            "lng": 72.040847,
            "phone": "",
            "website": "",
            "opening_hours": "",
            "source": "OpenStreetMap",
            "osm_type": "way",
            "osm_id": 338587093,
            "osm_url": "https://www.openstreetmap.org/way/338587093"
        },
        {
            "name": "Pir Babar\u2019s House",
            "address": "Mardan",
            "lat": 34.1522354,
            "lng": 72.0455655,
            "phone": "",
            "website": "",
            "opening_hours": "",
            "source": "OpenStreetMap",
            "osm_type": "node",
            "osm_id": 8624886617,
            "osm_url": "https://www.openstreetmap.org/node/8624886617"
        },
        {
            "name": "Sardar Ali Khan\u2019s House",
            "address": "Mardan - Malakand Road",
            "lat": 34.192604,
            "lng": 72.0330124,
            "phone": "",
            "website": "",
            "opening_hours": "",
            "source": "OpenStreetMap",
            "osm_type": "node",
            "osm_id": 7271375590,
            "osm_url": "https://www.openstreetmap.org/node/7271375590"
        },
        {
            "name": "Saro Shah",
            "address": "Mardan",
            "lat": 34.2378377,
            "lng": 71.9019886,
            "phone": "",
            "website": "",
            "opening_hours": "",
            "source": "OpenStreetMap",
            "osm_type": "node",
            "osm_id": 7389127185,
            "osm_url": "https://www.openstreetmap.org/node/7389127185"
        },
        {
            "name": "Sikandar Khan Mayar\u2019s House",
            "address": "Canal Road",
            "lat": 34.1576253,
            "lng": 72.0455734,
            "phone": "",
            "website": "",
            "opening_hours": "",
            "source": "OpenStreetMap",
            "osm_type": "node",
            "osm_id": 8440960717,
            "osm_url": "https://www.openstreetmap.org/node/8440960717"
        },
        {
            "name": "Syed Colony",
            "address": "Mardan",
            "lat": 34.1835434,
            "lng": 72.0545142,
            "phone": "",
            "website": "",
            "opening_hours": "",
            "source": "OpenStreetMap",
            "osm_type": "node",
            "osm_id": 8668661317,
            "osm_url": "https://www.openstreetmap.org/node/8668661317"
        },
        {
            "name": "Taimoor Rauf Khan Mayar\u2019s House",
            "address": "Mardan",
            "lat": 34.156869,
            "lng": 72.0377848,
            "phone": "",
            "website": "",
            "opening_hours": "",
            "source": "OpenStreetMap",
            "osm_type": "node",
            "osm_id": 7389127685,
            "osm_url": "https://www.openstreetmap.org/node/7389127685"
        },
        {
            "name": "Township",
            "address": "Mardan",
            "lat": 34.1646552,
            "lng": 72.0652979,
            "phone": "",
            "website": "",
            "opening_hours": "",
            "source": "OpenStreetMap",
            "osm_type": "node",
            "osm_id": 8280575227,
            "osm_url": "https://www.openstreetmap.org/node/8280575227"
        },
        {
            "name": "Wali Bagh",
            "address": "Mardan",
            "lat": 34.2738374,
            "lng": 72.1439953,
            "phone": "",
            "website": "",
            "opening_hours": "",
            "source": "OpenStreetMap",
            "osm_type": "node",
            "osm_id": 6534025085,
            "osm_url": "https://www.openstreetmap.org/node/6534025085"
        },
        {
            "name": "\u062a\u062e\u062a \u0628\u06be\u0627\u0626\u06cc \u0628\u062f\u06be \u062e\u0627\u0646\u0642\u0627\u06c1",
            "address": "UNESCO World Heritage Site. Buddhist monastic complex dating back to 1st century BC.",
            "lat": 34.2862323,
            "lng": 71.9468785,
            "phone": "",
            "website": "",
            "opening_hours": "",
            "source": "OpenStreetMap",
            "osm_type": "node",
            "osm_id": 316435089,
            "osm_url": "https://www.openstreetmap.org/node/316435089"
        },
        {
            "name": "\u062c\u0645\u0627\u0644 \u06af\u0691\u06be\u06cc \u06a9\u06d2 \u06a9\u06be\u0646\u0688\u0631\u0627\u062a",
            "address": "Mardan",
            "lat": 34.3216943,
            "lng": 72.0690048,
            "phone": "",
            "website": "",
            "opening_hours": "",
            "source": "OpenStreetMap",
            "osm_type": "node",
            "osm_id": 8884062668,
            "osm_url": "https://www.openstreetmap.org/node/8884062668"
        },
        {
            "name": "\u0645\u0633\u062c\u062f \u0628\u0644\u0627\u0644",
            "address": "Mardan",
            "lat": 34.189019,
            "lng": 72.0344094,
            "phone": "",
            "website": "",
            "opening_hours": "",
            "source": "OpenStreetMap",
            "osm_type": "node",
            "osm_id": 8280575219,
            "osm_url": "https://www.openstreetmap.org/node/8280575219"
        },
        {
            "name": "\u06a9\u0644\u067e\u0627\u0646\u06cc \u067e\u0644",
            "address": "\u0645\u0631\u062f\u0627\u0646",
            "lat": 34.1945626,
            "lng": 72.063061,
            "phone": "",
            "website": "",
            "opening_hours": "",
            "source": "OpenStreetMap",
            "osm_type": "node",
            "osm_id": 3456998833,
            "osm_url": "https://www.openstreetmap.org/node/3456998833"
        }
    ],
    "workshops": [
        {
            "name": "Babar Motors",
            "address": "Mardan - Nowshera Road",
            "lat": 34.1728028,
            "lng": 72.0310293,
            "phone": "+923339224414",
            "website": "",
            "opening_hours": "",
            "source": "OpenStreetMap",
            "osm_type": "node",
            "osm_id": 7040027787,
            "osm_url": "https://www.openstreetmap.org/node/7040027787"
        },
        {
            "name": "Car Workshop",
            "address": "Bakhshali road",
            "lat": 34.2849293,
            "lng": 72.1520878,
            "phone": "",
            "website": "",
            "opening_hours": "",
            "source": "OpenStreetMap",
            "osm_type": "node",
            "osm_id": 8755562217,
            "osm_url": "https://www.openstreetmap.org/node/8755562217"
        },
        {
            "name": "Khalid Ustad Workshop",
            "address": "Bypass Road",
            "lat": 34.1806777,
            "lng": 72.0259063,
            "phone": "",
            "website": "",
            "opening_hours": "Sa-Th 07:00-18:00",
            "source": "OpenStreetMap",
            "osm_type": "node",
            "osm_id": 6341611586,
            "osm_url": "https://www.openstreetmap.org/node/6341611586"
        }
    ],
    "banks-and-atms": [
        {
            "name": "Allied Bank",
            "address": "Bank Road",
            "lat": 34.1963663,
            "lng": 72.0407576,
            "phone": "",
            "website": "",
            "opening_hours": "Mo-Sa 09:00-17:00",
            "source": "OpenStreetMap",
            "osm_type": "node",
            "osm_id": 8280575432,
            "osm_url": "https://www.openstreetmap.org/node/8280575432"
        },
        {
            "name": "Allied Bank",
            "address": "Shamsi Road",
            "lat": 34.1922434,
            "lng": 72.0396592,
            "phone": "",
            "website": "",
            "opening_hours": "",
            "source": "OpenStreetMap",
            "osm_type": "node",
            "osm_id": 8380396021,
            "osm_url": "https://www.openstreetmap.org/node/8380396021"
        },
        {
            "name": "Askari Bank",
            "address": "Qazi Bashir Road",
            "lat": 34.1988506,
            "lng": 72.039865,
            "phone": "",
            "website": "",
            "opening_hours": "Mo-Sa 09:00-17:00",
            "source": "OpenStreetMap",
            "osm_type": "node",
            "osm_id": 8280575424,
            "osm_url": "https://www.openstreetmap.org/node/8280575424"
        },
        {
            "name": "HBL Bank",
            "address": "Bank Road",
            "lat": 34.1962533,
            "lng": 72.0407565,
            "phone": "",
            "website": "",
            "opening_hours": "",
            "source": "OpenStreetMap",
            "osm_type": "node",
            "osm_id": 8280575431,
            "osm_url": "https://www.openstreetmap.org/node/8280575431"
        },
        {
            "name": "MCB",
            "address": "Shamsi Road",
            "lat": 34.1918285,
            "lng": 72.0490844,
            "phone": "",
            "website": "",
            "opening_hours": "Mo-Fr 00:00-24:00",
            "source": "OpenStreetMap",
            "osm_type": "node",
            "osm_id": 8280575517,
            "osm_url": "https://www.openstreetmap.org/node/8280575517"
        },
        {
            "name": "National Savings Centre",
            "address": "\u0645\u0627\u0644 \u0631\u0648\u0688",
            "lat": 34.2005479,
            "lng": 72.041313,
            "phone": "+929379230036",
            "website": "",
            "opening_hours": "",
            "source": "OpenStreetMap",
            "osm_type": "node",
            "osm_id": 11801445172,
            "osm_url": "https://www.openstreetmap.org/node/11801445172"
        },
        {
            "name": "\u0646\u06cc\u0634\u0646\u0644 \u0628\u06cc\u0646\u06a9 \u0622\u0641 \u067e\u0627\u06a9\u0633\u062a\u0627\u0646",
            "address": "Mardan",
            "lat": 34.1965407,
            "lng": 72.041999,
            "phone": "",
            "website": "",
            "opening_hours": "",
            "source": "OpenStreetMap",
            "osm_type": "node",
            "osm_id": 4831790621,
            "osm_url": "https://www.openstreetmap.org/node/4831790621"
        },
        {
            "name": "Bakhshali",
            "address": "bakhshali mardan road",
            "lat": 34.282893,
            "lng": 72.148639,
            "source": "Added manually"
        }
    ]
}